[
  {
    "nom": "Versailles",
    "slug": "versailles",
    "codeInsee": "78646",
    "codePostal": "78000",
    "departement": "78",
    "population": 84095,
    "superficie": 2615,
    "densite": 32.16,
    "typeUrbain": "urbain_dense",
    "latitude": 48.8039,
    "longitude": 2.1191
  },
  {
    "nom": "Sartrouville",
    "slug": "sartrouville",
    "codeInsee": "78586",
    "codePostal": "78500",
    "departement": "78",
    "population": 52763,
    "superficie": 847,
    "densite": 62.29,
    "typeUrbain": "urbain_dense",
    "latitude": 48.9374,
    "longitude": 2.1744
  },
  {
    "nom": "Saint-Germain-en-Laye",
    "slug": "saint-germain-en-laye",
    "codeInsee": "78551",
    "codePostal": "78100",
    "departement": "78",
    "population": 45931,
    "superficie": 5309,
    "densite": 8.65,
    "typeUrbain": "urbain",
    "latitude": 48.931,
    "longitude": 2.1052
  },
  {
    "nom": "Mantes-la-Jolie",
    "slug": "mantes-la-jolie",
    "codeInsee": "78361",
    "codePostal": "78200",
    "departement": "78",
    "population": 43526,
    "superficie": 943,
    "densite": 46.13,
    "typeUrbain": "urbain",
    "latitude": 48.9961,
    "longitude": 1.6918
  },
  {
    "nom": "Poissy",
    "slug": "poissy",
    "codeInsee": "78498",
    "codePostal": "78300",
    "departement": "78",
    "population": 40983,
    "superficie": 1288,
    "densite": 31.81,
    "typeUrbain": "urbain",
    "latitude": 48.9241,
    "longitude": 2.025
  },
  {
    "nom": "Conflans-Sainte-Honorine",
    "slug": "conflans-sainte-honorine",
    "codeInsee": "78172",
    "codePostal": "78700",
    "departement": "78",
    "population": 36958,
    "superficie": 988,
    "densite": 37.42,
    "typeUrbain": "urbain",
    "latitude": 49.0016,
    "longitude": 2.0992
  },
  {
    "nom": "Trappes",
    "slug": "trappes",
    "codeInsee": "78621",
    "codePostal": "78190",
    "departement": "78",
    "population": 34689,
    "superficie": 1369,
    "densite": 25.33,
    "typeUrbain": "urbain",
    "latitude": 48.7738,
    "longitude": 1.9964
  },
  {
    "nom": "Les Mureaux",
    "slug": "les-mureaux",
    "codeInsee": "78440",
    "codePostal": "78130",
    "departement": "78",
    "population": 34632,
    "superficie": 1237,
    "densite": 27.99,
    "typeUrbain": "urbain",
    "latitude": 48.9877,
    "longitude": 1.911
  },
  {
    "nom": "Houilles",
    "slug": "houilles",
    "codeInsee": "78311",
    "codePostal": "78800",
    "departement": "78",
    "population": 33983,
    "superficie": 448,
    "densite": 75.93,
    "typeUrbain": "urbain",
    "latitude": 48.9266,
    "longitude": 2.1866
  },
  {
    "nom": "Montigny-le-Bretonneux",
    "slug": "montigny-le-bretonneux",
    "codeInsee": "78423",
    "codePostal": "78180",
    "departement": "78",
    "population": 32465,
    "superficie": 1070,
    "densite": 30.34,
    "typeUrbain": "urbain",
    "latitude": 48.7776,
    "longitude": 2.0252
  },
  {
    "nom": "Plaisir",
    "slug": "plaisir",
    "codeInsee": "78490",
    "codePostal": "78370",
    "departement": "78",
    "population": 31811,
    "superficie": 1765,
    "densite": 18.02,
    "typeUrbain": "urbain",
    "latitude": 48.8129,
    "longitude": 1.9483
  },
  {
    "nom": "Le Chesnay-Rocquencourt",
    "slug": "le-chesnay-rocquencourt",
    "codeInsee": "78158",
    "codePostal": "78150",
    "departement": "78",
    "population": 30689,
    "superficie": 716,
    "densite": 42.89,
    "typeUrbain": "urbain",
    "latitude": 48.8285,
    "longitude": 2.1188
  },
  {
    "nom": "Chatou",
    "slug": "chatou",
    "codeInsee": "78146",
    "codePostal": "78400",
    "departement": "78",
    "population": 30598,
    "superficie": 507,
    "densite": 60.38,
    "typeUrbain": "urbain",
    "latitude": 48.8964,
    "longitude": 2.1502
  },
  {
    "nom": "Guyancourt",
    "slug": "guyancourt",
    "codeInsee": "78297",
    "codePostal": "78280",
    "departement": "78",
    "population": 29778,
    "superficie": 1320,
    "densite": 22.56,
    "typeUrbain": "urbain",
    "latitude": 48.7735,
    "longitude": 2.0745
  },
  {
    "nom": "Rambouillet",
    "slug": "rambouillet",
    "codeInsee": "78517",
    "codePostal": "78120",
    "departement": "78",
    "population": 27724,
    "superficie": 3587,
    "densite": 7.73,
    "typeUrbain": "urbain",
    "latitude": 48.6538,
    "longitude": 1.8339
  },
  {
    "nom": "Élancourt",
    "slug": "elancourt",
    "codeInsee": "78208",
    "codePostal": "78990",
    "departement": "78",
    "population": 26365,
    "superficie": 924,
    "densite": 28.53,
    "typeUrbain": "urbain",
    "latitude": 48.7771,
    "longitude": 1.9612
  },
  {
    "nom": "Maisons-Laffitte",
    "slug": "maisons-laffitte",
    "codeInsee": "78358",
    "codePostal": "78600",
    "departement": "78",
    "population": 23093,
    "superficie": 693,
    "densite": 33.31,
    "typeUrbain": "urbain",
    "latitude": 48.9503,
    "longitude": 2.1533
  },
  {
    "nom": "Vélizy-Villacoublay",
    "slug": "velizy-villacoublay",
    "codeInsee": "78640",
    "codePostal": "78140",
    "departement": "78",
    "population": 23011,
    "superficie": 893,
    "densite": 25.76,
    "typeUrbain": "urbain",
    "latitude": 48.784,
    "longitude": 2.1956
  },
  {
    "nom": "Mantes-la-Ville",
    "slug": "mantes-la-ville",
    "codeInsee": "78362",
    "codePostal": "78711",
    "departement": "78",
    "population": 22332,
    "superficie": 624,
    "densite": 35.77,
    "typeUrbain": "urbain",
    "latitude": 48.9752,
    "longitude": 1.7103
  },
  {
    "nom": "Achères",
    "slug": "acheres",
    "codeInsee": "78005",
    "codePostal": "78260",
    "departement": "78",
    "population": 22241,
    "superficie": 947,
    "densite": 23.47,
    "typeUrbain": "urbain",
    "latitude": 48.9817,
    "longitude": 2.1095
  },
  {
    "nom": "Saint-Cyr-l'École",
    "slug": "saint-cyr-l-ecole",
    "codeInsee": "78545",
    "codePostal": "78210",
    "departement": "78",
    "population": 21268,
    "superficie": 511,
    "densite": 41.64,
    "typeUrbain": "urbain",
    "latitude": 48.8064,
    "longitude": 2.0657
  },
  {
    "nom": "Carrières-sous-Poissy",
    "slug": "carrieres-sous-poissy",
    "codeInsee": "78123",
    "codePostal": "78955",
    "departement": "78",
    "population": 20825,
    "superficie": 727,
    "densite": 28.65,
    "typeUrbain": "urbain",
    "latitude": 48.9469,
    "longitude": 2.0264
  },
  {
    "nom": "Maurepas",
    "slug": "maurepas",
    "codeInsee": "78383",
    "codePostal": "78310",
    "departement": "78",
    "population": 20629,
    "superficie": 841,
    "densite": 24.53,
    "typeUrbain": "urbain",
    "latitude": 48.7712,
    "longitude": 1.925
  },
  {
    "nom": "La Celle-Saint-Cloud",
    "slug": "la-celle-saint-cloud",
    "codeInsee": "78126",
    "codePostal": "78170",
    "departement": "78",
    "population": 20460,
    "superficie": 584,
    "densite": 35.04,
    "typeUrbain": "urbain",
    "latitude": 48.8498,
    "longitude": 2.1342
  },
  {
    "nom": "Limay",
    "slug": "limay",
    "codeInsee": "78335",
    "codePostal": "78520",
    "departement": "78",
    "population": 17885,
    "superficie": 1146,
    "densite": 15.61,
    "typeUrbain": "periurbain",
    "latitude": 48.9911,
    "longitude": 1.7367
  },
  {
    "nom": "Viroflay",
    "slug": "viroflay",
    "codeInsee": "78686",
    "codePostal": "78220",
    "departement": "78",
    "population": 17237,
    "superficie": 348,
    "densite": 49.55,
    "typeUrbain": "periurbain",
    "latitude": 48.8017,
    "longitude": 2.1725
  },
  {
    "nom": "Les Clayes-sous-Bois",
    "slug": "les-clayes-sous-bois",
    "codeInsee": "78165",
    "codePostal": "78340",
    "departement": "78",
    "population": 16804,
    "superficie": 611,
    "densite": 27.52,
    "typeUrbain": "periurbain",
    "latitude": 48.8168,
    "longitude": 1.9835
  },
  {
    "nom": "Marly-le-Roi",
    "slug": "marly-le-roi",
    "codeInsee": "78372",
    "codePostal": "78160",
    "departement": "78",
    "population": 16756,
    "superficie": 668,
    "densite": 25.07,
    "typeUrbain": "periurbain",
    "latitude": 48.866,
    "longitude": 2.0892
  },
  {
    "nom": "Bois-d'Arcy",
    "slug": "bois-d-arcy",
    "codeInsee": "78073",
    "codePostal": "78390",
    "departement": "78",
    "population": 16586,
    "superficie": 559,
    "densite": 29.66,
    "typeUrbain": "periurbain",
    "latitude": 48.806,
    "longitude": 2.0223
  },
  {
    "nom": "Verneuil-sur-Seine",
    "slug": "verneuil-sur-seine",
    "codeInsee": "78642",
    "codePostal": "78480",
    "departement": "78",
    "population": 16280,
    "superficie": 959,
    "densite": 16.97,
    "typeUrbain": "periurbain",
    "latitude": 48.9874,
    "longitude": 1.9659
  },
  {
    "nom": "Le Pecq",
    "slug": "le-pecq",
    "codeInsee": "78481",
    "codePostal": "78230",
    "departement": "78",
    "population": 16059,
    "superficie": 289,
    "densite": 55.66,
    "typeUrbain": "periurbain",
    "latitude": 48.8924,
    "longitude": 2.1022
  },
  {
    "nom": "Le Vésinet",
    "slug": "le-vesinet",
    "codeInsee": "78650",
    "codePostal": "78110",
    "departement": "78",
    "population": 15554,
    "superficie": 502,
    "densite": 30.98,
    "typeUrbain": "periurbain",
    "latitude": 48.8928,
    "longitude": 2.1312
  },
  {
    "nom": "Carrières-sur-Seine",
    "slug": "carrieres-sur-seine",
    "codeInsee": "78124",
    "codePostal": "78420",
    "departement": "78",
    "population": 14791,
    "superficie": 509,
    "densite": 29.03,
    "typeUrbain": "periurbain",
    "latitude": 48.9128,
    "longitude": 2.1812
  },
  {
    "nom": "Montesson",
    "slug": "montesson",
    "codeInsee": "78418",
    "codePostal": "78360",
    "departement": "78",
    "population": 14549,
    "superficie": 734,
    "densite": 19.83,
    "typeUrbain": "periurbain",
    "latitude": 48.919,
    "longitude": 2.1381
  },
  {
    "nom": "Andrésy",
    "slug": "andresy",
    "codeInsee": "78015",
    "codePostal": "78570",
    "departement": "78",
    "population": 13834,
    "superficie": 691,
    "densite": 20.03,
    "typeUrbain": "periurbain",
    "latitude": 48.9778,
    "longitude": 2.0496
  },
  {
    "nom": "Fontenay-le-Fleury",
    "slug": "fontenay-le-fleury",
    "codeInsee": "78242",
    "codePostal": "78330",
    "departement": "78",
    "population": 13680,
    "superficie": 557,
    "densite": 24.57,
    "typeUrbain": "periurbain",
    "latitude": 48.8169,
    "longitude": 2.0477
  },
  {
    "nom": "Aubergenville",
    "slug": "aubergenville",
    "codeInsee": "78029",
    "codePostal": "78410",
    "departement": "78",
    "population": 12723,
    "superficie": 906,
    "densite": 14.04,
    "typeUrbain": "periurbain",
    "latitude": 48.9609,
    "longitude": 1.844
  },
  {
    "nom": "Triel-sur-Seine",
    "slug": "triel-sur-seine",
    "codeInsee": "78624",
    "codePostal": "78510",
    "departement": "78",
    "population": 12206,
    "superficie": 1382,
    "densite": 8.83,
    "typeUrbain": "periurbain",
    "latitude": 48.976,
    "longitude": 2.0055
  },
  {
    "nom": "Villepreux",
    "slug": "villepreux",
    "codeInsee": "78674",
    "codePostal": "78450",
    "departement": "78",
    "population": 11931,
    "superficie": 1046,
    "densite": 11.41,
    "typeUrbain": "periurbain",
    "latitude": 48.8306,
    "longitude": 2.0127
  },
  {
    "nom": "Croissy-sur-Seine",
    "slug": "croissy-sur-seine",
    "codeInsee": "78190",
    "codePostal": "78290",
    "departement": "78",
    "population": 11013,
    "superficie": 344,
    "densite": 32.01,
    "typeUrbain": "periurbain",
    "latitude": 48.8805,
    "longitude": 2.1342
  },
  {
    "nom": "Chanteloup-les-Vignes",
    "slug": "chanteloup-les-vignes",
    "codeInsee": "78138",
    "codePostal": "78570",
    "departement": "78",
    "population": 10861,
    "superficie": 342,
    "densite": 31.72,
    "typeUrbain": "periurbain",
    "latitude": 48.9773,
    "longitude": 2.0336
  },
  {
    "nom": "Voisins-le-Bretonneux",
    "slug": "voisins-le-bretonneux",
    "codeInsee": "78688",
    "codePostal": "78960",
    "departement": "78",
    "population": 10624,
    "superficie": 361,
    "densite": 29.44,
    "typeUrbain": "periurbain",
    "latitude": 48.7598,
    "longitude": 2.047
  },
  {
    "nom": "Vernouillet",
    "slug": "vernouillet",
    "codeInsee": "78643",
    "codePostal": "78540",
    "departement": "78",
    "population": 9699,
    "superficie": 673,
    "densite": 14.42,
    "typeUrbain": "periurbain",
    "latitude": 48.9649,
    "longitude": 1.9748
  },
  {
    "nom": "Magny-les-Hameaux",
    "slug": "magny-les-hameaux",
    "codeInsee": "78356",
    "codePostal": "78114",
    "departement": "78",
    "population": 9386,
    "superficie": 1670,
    "densite": 5.62,
    "typeUrbain": "periurbain",
    "latitude": 48.7379,
    "longitude": 2.0494
  },
  {
    "nom": "Bougival",
    "slug": "bougival",
    "codeInsee": "78092",
    "codePostal": "78380",
    "departement": "78",
    "population": 9134,
    "superficie": 276,
    "densite": 33.14,
    "typeUrbain": "periurbain",
    "latitude": 48.8627,
    "longitude": 2.1394
  },
  {
    "nom": "Meulan-en-Yvelines",
    "slug": "meulan-en-yvelines",
    "codeInsee": "78401",
    "codePostal": "78250",
    "departement": "78",
    "population": 8950,
    "superficie": 345,
    "densite": 25.95,
    "typeUrbain": "periurbain",
    "latitude": 49.0051,
    "longitude": 1.909
  },
  {
    "nom": "Louveciennes",
    "slug": "louveciennes",
    "codeInsee": "78350",
    "codePostal": "78430",
    "departement": "78",
    "population": 7990,
    "superficie": 545,
    "densite": 14.67,
    "typeUrbain": "periurbain",
    "latitude": 48.8595,
    "longitude": 2.1132
  },
  {
    "nom": "Jouy-en-Josas",
    "slug": "jouy-en-josas",
    "codeInsee": "78322",
    "codePostal": "78350",
    "departement": "78",
    "population": 7981,
    "superficie": 1021,
    "densite": 7.81,
    "typeUrbain": "periurbain",
    "latitude": 48.7652,
    "longitude": 2.161
  },
  {
    "nom": "Gargenville",
    "slug": "gargenville",
    "codeInsee": "78267",
    "codePostal": "78440",
    "departement": "78",
    "population": 7869,
    "superficie": 865,
    "densite": 9.09,
    "typeUrbain": "periurbain",
    "latitude": 48.9938,
    "longitude": 1.8112
  },
  {
    "nom": "Saint-Rémy-lès-Chevreuse",
    "slug": "saint-remy-les-chevreuse",
    "codeInsee": "78575",
    "codePostal": "78470",
    "departement": "78",
    "population": 7747,
    "superficie": 980,
    "densite": 7.91,
    "typeUrbain": "periurbain",
    "latitude": 48.7037,
    "longitude": 2.082
  },
  {
    "nom": "Noisy-le-Roi",
    "slug": "noisy-le-roi",
    "codeInsee": "78455",
    "codePostal": "78590",
    "departement": "78",
    "population": 7713,
    "superficie": 555,
    "densite": 13.91,
    "typeUrbain": "periurbain",
    "latitude": 48.8466,
    "longitude": 2.0542
  },
  {
    "nom": "Beynes",
    "slug": "beynes",
    "codeInsee": "78062",
    "codePostal": "78650",
    "departement": "78",
    "population": 7704,
    "superficie": 1864,
    "densite": 4.13,
    "typeUrbain": "periurbain",
    "latitude": 48.8528,
    "longitude": 1.8748
  },
  {
    "nom": "Rosny-sur-Seine",
    "slug": "rosny-sur-seine",
    "codeInsee": "78531",
    "codePostal": "78710",
    "departement": "78",
    "population": 7328,
    "superficie": 1924,
    "densite": 3.81,
    "typeUrbain": "periurbain",
    "latitude": 48.9978,
    "longitude": 1.6054
  },
  {
    "nom": "Le Mesnil-Saint-Denis",
    "slug": "le-mesnil-saint-denis",
    "codeInsee": "78397",
    "codePostal": "78320",
    "departement": "78",
    "population": 7276,
    "superficie": 907,
    "densite": 8.02,
    "typeUrbain": "periurbain",
    "latitude": 48.7389,
    "longitude": 1.9619
  },
  {
    "nom": "Orgeval",
    "slug": "orgeval",
    "codeInsee": "78466",
    "codePostal": "78630",
    "departement": "78",
    "population": 7252,
    "superficie": 1546,
    "densite": 4.69,
    "typeUrbain": "periurbain",
    "latitude": 48.9185,
    "longitude": 1.9698
  },
  {
    "nom": "Épône",
    "slug": "epone",
    "codeInsee": "78217",
    "codePostal": "78680",
    "departement": "78",
    "population": 7031,
    "superficie": 1335,
    "densite": 5.27,
    "typeUrbain": "periurbain",
    "latitude": 48.9459,
    "longitude": 1.8119
  },
  {
    "nom": "Les Essarts-le-Roi",
    "slug": "les-essarts-le-roi",
    "codeInsee": "78220",
    "codePostal": "78690",
    "departement": "78",
    "population": 6831,
    "superficie": 1962,
    "densite": 3.48,
    "typeUrbain": "periurbain",
    "latitude": 48.713,
    "longitude": 1.8905
  },
  {
    "nom": "Le Perray-en-Yvelines",
    "slug": "le-perray-en-yvelines",
    "codeInsee": "78486",
    "codePostal": "78610",
    "departement": "78",
    "population": 6480,
    "superficie": 1355,
    "densite": 4.78,
    "typeUrbain": "periurbain",
    "latitude": 48.6988,
    "longitude": 1.8424
  },
  {
    "nom": "Magnanville",
    "slug": "magnanville",
    "codeInsee": "78354",
    "codePostal": "78200",
    "departement": "78",
    "population": 6383,
    "superficie": 428,
    "densite": 14.91,
    "typeUrbain": "periurbain",
    "latitude": 48.9685,
    "longitude": 1.6842
  },
  {
    "nom": "Le Mesnil-le-Roi",
    "slug": "le-mesnil-le-roi",
    "codeInsee": "78396",
    "codePostal": "78600",
    "departement": "78",
    "population": 6332,
    "superficie": 381,
    "densite": 16.61,
    "typeUrbain": "periurbain",
    "latitude": 48.9249,
    "longitude": 2.1234
  },
  {
    "nom": "Maule",
    "slug": "maule",
    "codeInsee": "78380",
    "codePostal": "78580",
    "departement": "78",
    "population": 6083,
    "superficie": 1744,
    "densite": 3.49,
    "typeUrbain": "periurbain",
    "latitude": 48.9058,
    "longitude": 1.8409
  },
  {
    "nom": "Jouars-Pontchartrain",
    "slug": "jouars-pontchartrain",
    "codeInsee": "78321",
    "codePostal": "78760",
    "departement": "78",
    "population": 6039,
    "superficie": 973,
    "densite": 6.2,
    "typeUrbain": "periurbain",
    "latitude": 48.7874,
    "longitude": 1.913
  },
  {
    "nom": "La Verrière",
    "slug": "la-verriere",
    "codeInsee": "78644",
    "codePostal": "78320",
    "departement": "78",
    "population": 5994,
    "superficie": 213,
    "densite": 28.09,
    "typeUrbain": "periurbain",
    "latitude": 48.7545,
    "longitude": 1.9505
  },
  {
    "nom": "Villennes-sur-Seine",
    "slug": "villennes-sur-seine",
    "codeInsee": "78672",
    "codePostal": "78670",
    "departement": "78",
    "population": 5952,
    "superficie": 501,
    "densite": 11.89,
    "typeUrbain": "periurbain",
    "latitude": 48.9372,
    "longitude": 1.9975
  },
  {
    "nom": "Saint-Arnoult-en-Yvelines",
    "slug": "saint-arnoult-en-yvelines",
    "codeInsee": "78537",
    "codePostal": "78730",
    "departement": "78",
    "population": 5875,
    "superficie": 1269,
    "densite": 4.63,
    "typeUrbain": "periurbain",
    "latitude": 48.5752,
    "longitude": 1.9293
  },
  {
    "nom": "Chambourcy",
    "slug": "chambourcy",
    "codeInsee": "78133",
    "codePostal": "78240",
    "departement": "78",
    "population": 5847,
    "superficie": 798,
    "densite": 7.33,
    "typeUrbain": "periurbain",
    "latitude": 48.8973,
    "longitude": 2.0267
  },
  {
    "nom": "Buc",
    "slug": "buc",
    "codeInsee": "78117",
    "codePostal": "78530",
    "departement": "78",
    "population": 5816,
    "superficie": 805,
    "densite": 7.22,
    "typeUrbain": "periurbain",
    "latitude": 48.7736,
    "longitude": 2.125
  },
  {
    "nom": "Le Port-Marly",
    "slug": "le-port-marly",
    "codeInsee": "78502",
    "codePostal": "78560",
    "departement": "78",
    "population": 5559,
    "superficie": 144,
    "densite": 38.65,
    "typeUrbain": "periurbain",
    "latitude": 48.8808,
    "longitude": 2.1104
  },
  {
    "nom": "Chevreuse",
    "slug": "chevreuse",
    "codeInsee": "78160",
    "codePostal": "78460",
    "departement": "78",
    "population": 5502,
    "superficie": 1357,
    "densite": 4.05,
    "typeUrbain": "periurbain",
    "latitude": 48.7035,
    "longitude": 2.0343
  },
  {
    "nom": "Vaux-sur-Seine",
    "slug": "vaux-sur-seine",
    "codeInsee": "78638",
    "codePostal": "78740",
    "departement": "78",
    "population": 5202,
    "superficie": 844,
    "densite": 6.16,
    "typeUrbain": "periurbain",
    "latitude": 49.0089,
    "longitude": 1.9704
  },
  {
    "nom": "L'Étang-la-Ville",
    "slug": "l-etang-la-ville",
    "codeInsee": "78224",
    "codePostal": "78620",
    "departement": "78",
    "population": 5157,
    "superficie": 538,
    "densite": 9.59,
    "typeUrbain": "periurbain",
    "latitude": 48.8673,
    "longitude": 2.0586
  },
  {
    "nom": "Bonnières-sur-Seine",
    "slug": "bonnieres-sur-seine",
    "codeInsee": "78089",
    "codePostal": "78270",
    "departement": "78",
    "population": 5064,
    "superficie": 786,
    "densite": 6.45,
    "typeUrbain": "periurbain",
    "latitude": 49.0168,
    "longitude": 1.5685
  },
  {
    "nom": "Saint-Nom-la-Bretèche",
    "slug": "saint-nom-la-breteche",
    "codeInsee": "78571",
    "codePostal": "78860",
    "departement": "78",
    "population": 4965,
    "superficie": 1180,
    "densite": 4.21,
    "typeUrbain": "rural",
    "latitude": 48.8621,
    "longitude": 2.0168
  },
  {
    "nom": "Freneuse",
    "slug": "freneuse",
    "codeInsee": "78255",
    "codePostal": "78840",
    "departement": "78",
    "population": 4505,
    "superficie": 1039,
    "densite": 4.33,
    "typeUrbain": "rural",
    "latitude": 49.0489,
    "longitude": 1.6139
  },
  {
    "nom": "Maurecourt",
    "slug": "maurecourt",
    "codeInsee": "78382",
    "codePostal": "78780",
    "departement": "78",
    "population": 4454,
    "superficie": 369,
    "densite": 12.08,
    "typeUrbain": "rural",
    "latitude": 48.9994,
    "longitude": 2.0479
  },
  {
    "nom": "Coignières",
    "slug": "coignieres",
    "codeInsee": "78168",
    "codePostal": "78310",
    "departement": "78",
    "population": 4321,
    "superficie": 809,
    "densite": 5.34,
    "typeUrbain": "rural",
    "latitude": 48.7506,
    "longitude": 1.9178
  },
  {
    "nom": "Ecquevilly",
    "slug": "ecquevilly",
    "codeInsee": "78206",
    "codePostal": "78920",
    "departement": "78",
    "population": 4279,
    "superficie": 1130,
    "densite": 3.79,
    "typeUrbain": "rural",
    "latitude": 48.9482,
    "longitude": 1.925
  },
  {
    "nom": "Mareil-Marly",
    "slug": "mareil-marly",
    "codeInsee": "78367",
    "codePostal": "78750",
    "departement": "78",
    "population": 4141,
    "superficie": 177,
    "densite": 23.34,
    "typeUrbain": "rural",
    "latitude": 48.88,
    "longitude": 2.0775
  },
  {
    "nom": "Juziers",
    "slug": "juziers",
    "codeInsee": "78327",
    "codePostal": "78820",
    "departement": "78",
    "population": 4065,
    "superficie": 875,
    "densite": 4.65,
    "typeUrbain": "rural",
    "latitude": 48.9991,
    "longitude": 1.842
  },
  {
    "nom": "Issou",
    "slug": "issou",
    "codeInsee": "78314",
    "codePostal": "78440",
    "departement": "78",
    "population": 4060,
    "superficie": 479,
    "densite": 8.48,
    "typeUrbain": "rural",
    "latitude": 48.9884,
    "longitude": 1.7865
  },
  {
    "nom": "Mézières-sur-Seine",
    "slug": "mezieres-sur-seine",
    "codeInsee": "78402",
    "codePostal": "78970",
    "departement": "78",
    "population": 3923,
    "superficie": 1082,
    "densite": 3.62,
    "typeUrbain": "rural",
    "latitude": 48.9481,
    "longitude": 1.782
  },
  {
    "nom": "Ablis",
    "slug": "ablis",
    "codeInsee": "78003",
    "codePostal": "78660",
    "departement": "78",
    "population": 3913,
    "superficie": 2619,
    "densite": 1.49,
    "typeUrbain": "rural",
    "latitude": 48.5292,
    "longitude": 1.8565
  },
  {
    "nom": "Bailly",
    "slug": "bailly",
    "codeInsee": "78043",
    "codePostal": "78870",
    "departement": "78",
    "population": 3731,
    "superficie": 662,
    "densite": 5.63,
    "typeUrbain": "rural",
    "latitude": 48.8366,
    "longitude": 2.0809
  },
  {
    "nom": "Houdan",
    "slug": "houdan",
    "codeInsee": "78310",
    "codePostal": "78550",
    "departement": "78",
    "population": 3721,
    "superficie": 1041,
    "densite": 3.57,
    "typeUrbain": "rural",
    "latitude": 48.7968,
    "longitude": 1.5981
  },
  {
    "nom": "Villiers-Saint-Frédéric",
    "slug": "villiers-saint-frederic",
    "codeInsee": "78683",
    "codePostal": "78640",
    "departement": "78",
    "population": 3395,
    "superficie": 510,
    "densite": 6.66,
    "typeUrbain": "rural",
    "latitude": 48.8201,
    "longitude": 1.883
  },
  {
    "nom": "Porcheville",
    "slug": "porcheville",
    "codeInsee": "78501",
    "codePostal": "78440",
    "departement": "78",
    "population": 3382,
    "superficie": 462,
    "densite": 7.32,
    "typeUrbain": "rural",
    "latitude": 48.9781,
    "longitude": 1.768
  },
  {
    "nom": "Buchelay",
    "slug": "buchelay",
    "codeInsee": "78118",
    "codePostal": "78200",
    "departement": "78",
    "population": 3360,
    "superficie": 493,
    "densite": 6.82,
    "typeUrbain": "rural",
    "latitude": 48.983,
    "longitude": 1.6788
  },
  {
    "nom": "Neauphle-le-Château",
    "slug": "neauphle-le-chateau",
    "codeInsee": "78442",
    "codePostal": "78640",
    "departement": "78",
    "population": 3250,
    "superficie": 218,
    "densite": 14.93,
    "typeUrbain": "rural",
    "latitude": 48.8122,
    "longitude": 1.9031
  },
  {
    "nom": "Morainvilliers",
    "slug": "morainvilliers",
    "codeInsee": "78431",
    "codePostal": "78630",
    "departement": "78",
    "population": 3120,
    "superficie": 744,
    "densite": 4.2,
    "typeUrbain": "rural",
    "latitude": 48.9351,
    "longitude": 1.9437
  },
  {
    "nom": "Feucherolles",
    "slug": "feucherolles",
    "codeInsee": "78233",
    "codePostal": "78810",
    "departement": "78",
    "population": 3043,
    "superficie": 1319,
    "densite": 2.31,
    "typeUrbain": "rural",
    "latitude": 48.8787,
    "longitude": 1.9847
  },
  {
    "nom": "Montfort-l'Amaury",
    "slug": "montfort-l-amaury",
    "codeInsee": "78420",
    "codePostal": "78490",
    "departement": "78",
    "population": 2779,
    "superficie": 573,
    "densite": 4.85,
    "typeUrbain": "rural",
    "latitude": 48.7717,
    "longitude": 1.8081
  },
  {
    "nom": "La Queue-les-Yvelines",
    "slug": "la-queue-les-yvelines",
    "codeInsee": "78513",
    "codePostal": "78940",
    "departement": "78",
    "population": 2629,
    "superficie": 578,
    "densite": 4.55,
    "typeUrbain": "rural",
    "latitude": 48.8042,
    "longitude": 1.7603
  },
  {
    "nom": "Garancières",
    "slug": "garancieres",
    "codeInsee": "78265",
    "codePostal": "78890",
    "departement": "78",
    "population": 2621,
    "superficie": 1040,
    "densite": 2.52,
    "typeUrbain": "rural",
    "latitude": 48.8223,
    "longitude": 1.7602
  },
  {
    "nom": "Hardricourt",
    "slug": "hardricourt",
    "codeInsee": "78299",
    "codePostal": "78250",
    "departement": "78",
    "population": 2599,
    "superficie": 335,
    "densite": 7.76,
    "typeUrbain": "rural",
    "latitude": 49.0092,
    "longitude": 1.8834
  },
  {
    "nom": "Gambais",
    "slug": "gambais",
    "codeInsee": "78263",
    "codePostal": "78950",
    "departement": "78",
    "population": 2574,
    "superficie": 2273,
    "densite": 1.13,
    "typeUrbain": "rural",
    "latitude": 48.7774,
    "longitude": 1.6732
  },
  {
    "nom": "Orgerus",
    "slug": "orgerus",
    "codeInsee": "78465",
    "codePostal": "78910",
    "departement": "78",
    "population": 2489,
    "superficie": 1448,
    "densite": 1.72,
    "typeUrbain": "rural",
    "latitude": 48.8351,
    "longitude": 1.695
  },
  {
    "nom": "Flins-sur-Seine",
    "slug": "flins-sur-seine",
    "codeInsee": "78238",
    "codePostal": "78410",
    "departement": "78",
    "population": 2447,
    "superficie": 878,
    "densite": 2.79,
    "typeUrbain": "rural",
    "latitude": 48.9664,
    "longitude": 1.8721
  },
  {
    "nom": "Septeuil",
    "slug": "septeuil",
    "codeInsee": "78591",
    "codePostal": "78790",
    "departement": "78",
    "population": 2264,
    "superficie": 957,
    "densite": 2.37,
    "typeUrbain": "rural",
    "latitude": 48.8883,
    "longitude": 1.6891
  },
  {
    "nom": "Mézy-sur-Seine",
    "slug": "mezy-sur-seine",
    "codeInsee": "78403",
    "codePostal": "78250",
    "departement": "78",
    "population": 2242,
    "superficie": 481,
    "densite": 4.66,
    "typeUrbain": "rural",
    "latitude": 49.0033,
    "longitude": 1.8692
  },
  {
    "nom": "Bouafle",
    "slug": "bouafle",
    "codeInsee": "78090",
    "codePostal": "78410",
    "departement": "78",
    "population": 2234,
    "superficie": 696,
    "densite": 3.21,
    "typeUrbain": "rural",
    "latitude": 48.9566,
    "longitude": 1.8997
  },
  {
    "nom": "Follainville-Dennemont",
    "slug": "follainville-dennemont",
    "codeInsee": "78239",
    "codePostal": "78520",
    "departement": "78",
    "population": 2184,
    "superficie": 976,
    "densite": 2.24,
    "typeUrbain": "rural",
    "latitude": 49.0293,
    "longitude": 1.7027
  },
  {
    "nom": "Bonnelles",
    "slug": "bonnelles",
    "codeInsee": "78087",
    "codePostal": "78830",
    "departement": "78",
    "population": 2165,
    "superficie": 1081,
    "densite": 2,
    "typeUrbain": "rural",
    "latitude": 48.6203,
    "longitude": 2.0327
  },
  {
    "nom": "Bréval",
    "slug": "breval",
    "codeInsee": "78107",
    "codePostal": "78980",
    "departement": "78",
    "population": 2151,
    "superficie": 1151,
    "densite": 1.87,
    "typeUrbain": "rural",
    "latitude": 48.9567,
    "longitude": 1.5402
  },
  {
    "nom": "Limetz-Villez",
    "slug": "limetz-villez",
    "codeInsee": "78337",
    "codePostal": "78270",
    "departement": "78",
    "population": 2110,
    "superficie": 946,
    "densite": 2.23,
    "typeUrbain": "rural",
    "latitude": 49.0585,
    "longitude": 1.5512
  },
  {
    "nom": "Guerville",
    "slug": "guerville",
    "codeInsee": "78291",
    "codePostal": "78930",
    "departement": "78",
    "population": 2052,
    "superficie": 1011,
    "densite": 2.03,
    "typeUrbain": "rural",
    "latitude": 48.9544,
    "longitude": 1.7409
  },
  {
    "nom": "Auffargis",
    "slug": "auffargis",
    "codeInsee": "78030",
    "codePostal": "78610",
    "departement": "78",
    "population": 1963,
    "superficie": 1730,
    "densite": 1.13,
    "typeUrbain": "rural",
    "latitude": 48.6824,
    "longitude": 1.8994
  },
  {
    "nom": "Bullion",
    "slug": "bullion",
    "codeInsee": "78120",
    "codePostal": "78830",
    "departement": "78",
    "population": 1916,
    "superficie": 2125,
    "densite": 0.9,
    "typeUrbain": "rural",
    "latitude": 48.6267,
    "longitude": 1.9758
  },
  {
    "nom": "Saint-Germain-de-la-Grange",
    "slug": "saint-germain-de-la-grange",
    "codeInsee": "78550",
    "codePostal": "78640",
    "departement": "78",
    "population": 1847,
    "superficie": 528,
    "densite": 3.5,
    "typeUrbain": "rural",
    "latitude": 48.8347,
    "longitude": 1.902
  },
  {
    "nom": "Mareil-sur-Mauldre",
    "slug": "mareil-sur-mauldre",
    "codeInsee": "78368",
    "codePostal": "78124",
    "departement": "78",
    "population": 1776,
    "superficie": 438,
    "densite": 4.06,
    "typeUrbain": "rural",
    "latitude": 48.8893,
    "longitude": 1.8747
  },
  {
    "nom": "Bennecourt",
    "slug": "bennecourt",
    "codeInsee": "78057",
    "codePostal": "78270",
    "departement": "78",
    "population": 1747,
    "superficie": 692,
    "densite": 2.52,
    "typeUrbain": "rural",
    "latitude": 49.0484,
    "longitude": 1.5654
  },
  {
    "nom": "Méré",
    "slug": "mere",
    "codeInsee": "78389",
    "codePostal": "78490",
    "departement": "78",
    "population": 1731,
    "superficie": 1052,
    "densite": 1.65,
    "typeUrbain": "rural",
    "latitude": 48.7954,
    "longitude": 1.8188
  },
  {
    "nom": "Bazemont",
    "slug": "bazemont",
    "codeInsee": "78049",
    "codePostal": "78580",
    "departement": "78",
    "population": 1727,
    "superficie": 670,
    "densite": 2.58,
    "typeUrbain": "rural",
    "latitude": 48.9321,
    "longitude": 1.8761
  },
  {
    "nom": "Chavenay",
    "slug": "chavenay",
    "codeInsee": "78152",
    "codePostal": "78450",
    "departement": "78",
    "population": 1723,
    "superficie": 610,
    "densite": 2.82,
    "typeUrbain": "rural",
    "latitude": 48.8471,
    "longitude": 1.9862
  },
  {
    "nom": "Crespières",
    "slug": "crespieres",
    "codeInsee": "78189",
    "codePostal": "78121",
    "departement": "78",
    "population": 1719,
    "superficie": 1500,
    "densite": 1.15,
    "typeUrbain": "rural",
    "latitude": 48.8809,
    "longitude": 1.9185
  },
  {
    "nom": "Saint-Rémy-l'Honoré",
    "slug": "saint-remy-l-honore",
    "codeInsee": "78576",
    "codePostal": "78690",
    "departement": "78",
    "population": 1689,
    "superficie": 1024,
    "densite": 1.65,
    "typeUrbain": "rural",
    "latitude": 48.7515,
    "longitude": 1.8775
  },
  {
    "nom": "Sonchamp",
    "slug": "sonchamp",
    "codeInsee": "78601",
    "codePostal": "78120",
    "departement": "78",
    "population": 1678,
    "superficie": 4634,
    "densite": 0.36,
    "typeUrbain": "rural",
    "latitude": 48.5854,
    "longitude": 1.8765
  },
  {
    "nom": "Les Loges-en-Josas",
    "slug": "les-loges-en-josas",
    "codeInsee": "78343",
    "codePostal": "78350",
    "departement": "78",
    "population": 1645,
    "superficie": 251,
    "densite": 6.56,
    "typeUrbain": "rural",
    "latitude": 48.7617,
    "longitude": 2.1412
  },
  {
    "nom": "Lévis-Saint-Nom",
    "slug": "levis-saint-nom",
    "codeInsee": "78334",
    "codePostal": "78320",
    "departement": "78",
    "population": 1603,
    "superficie": 837,
    "densite": 1.91,
    "typeUrbain": "rural",
    "latitude": 48.7248,
    "longitude": 1.9336
  },
  {
    "nom": "Longnes",
    "slug": "longnes",
    "codeInsee": "78346",
    "codePostal": "78980",
    "departement": "78",
    "population": 1601,
    "superficie": 1398,
    "densite": 1.15,
    "typeUrbain": "rural",
    "latitude": 48.9201,
    "longitude": 1.5753
  },
  {
    "nom": "Richebourg",
    "slug": "richebourg",
    "codeInsee": "78520",
    "codePostal": "78550",
    "departement": "78",
    "population": 1570,
    "superficie": 1064,
    "densite": 1.48,
    "typeUrbain": "rural",
    "latitude": 48.825,
    "longitude": 1.634
  },
  {
    "nom": "Châteaufort",
    "slug": "chateaufort",
    "codeInsee": "78143",
    "codePostal": "78117",
    "departement": "78",
    "population": 1564,
    "superficie": 489,
    "densite": 3.2,
    "typeUrbain": "rural",
    "latitude": 48.7371,
    "longitude": 2.0956
  },
  {
    "nom": "Cernay-la-Ville",
    "slug": "cernay-la-ville",
    "codeInsee": "78128",
    "codePostal": "78720",
    "departement": "78",
    "population": 1516,
    "superficie": 1008,
    "densite": 1.5,
    "typeUrbain": "rural",
    "latitude": 48.6697,
    "longitude": 1.9617
  },
  {
    "nom": "Gazeran",
    "slug": "gazeran",
    "codeInsee": "78269",
    "codePostal": "78125",
    "departement": "78",
    "population": 1492,
    "superficie": 2576,
    "densite": 0.58,
    "typeUrbain": "rural",
    "latitude": 48.6375,
    "longitude": 1.7785
  },
  {
    "nom": "Bazainville",
    "slug": "bazainville",
    "codeInsee": "78048",
    "codePostal": "78550",
    "departement": "78",
    "population": 1469,
    "superficie": 1204,
    "densite": 1.22,
    "typeUrbain": "rural",
    "latitude": 48.8121,
    "longitude": 1.6659
  },
  {
    "nom": "Saint-Léger-en-Yvelines",
    "slug": "saint-leger-en-yvelines",
    "codeInsee": "78562",
    "codePostal": "78610",
    "departement": "78",
    "population": 1468,
    "superficie": 3509,
    "densite": 0.42,
    "typeUrbain": "rural",
    "latitude": 48.7338,
    "longitude": 1.7646
  },
  {
    "nom": "Dammartin-en-Serve",
    "slug": "dammartin-en-serve",
    "codeInsee": "78192",
    "codePostal": "78111",
    "departement": "78",
    "population": 1441,
    "superficie": 1386,
    "densite": 1.04,
    "typeUrbain": "rural",
    "latitude": 48.9125,
    "longitude": 1.6193
  },
  {
    "nom": "Thoiry",
    "slug": "thoiry",
    "codeInsee": "78616",
    "codePostal": "78770",
    "departement": "78",
    "population": 1434,
    "superficie": 714,
    "densite": 2.01,
    "typeUrbain": "rural",
    "latitude": 48.8699,
    "longitude": 1.7989
  },
  {
    "nom": "Les Alluets-le-Roi",
    "slug": "les-alluets-le-roi",
    "codeInsee": "78010",
    "codePostal": "78580",
    "departement": "78",
    "population": 1390,
    "superficie": 748,
    "densite": 1.86,
    "typeUrbain": "rural",
    "latitude": 48.914,
    "longitude": 1.913
  },
  {
    "nom": "Chapet",
    "slug": "chapet",
    "codeInsee": "78140",
    "codePostal": "78130",
    "departement": "78",
    "population": 1331,
    "superficie": 520,
    "densite": 2.56,
    "typeUrbain": "rural",
    "latitude": 48.9681,
    "longitude": 1.9383
  },
  {
    "nom": "Les Bréviaires",
    "slug": "les-breviaires",
    "codeInsee": "78108",
    "codePostal": "78610",
    "departement": "78",
    "population": 1302,
    "superficie": 1977,
    "densite": 0.66,
    "typeUrbain": "rural",
    "latitude": 48.7172,
    "longitude": 1.8177
  },
  {
    "nom": "Galluis",
    "slug": "galluis",
    "codeInsee": "78262",
    "codePostal": "78490",
    "departement": "78",
    "population": 1298,
    "superficie": 450,
    "densite": 2.89,
    "typeUrbain": "rural",
    "latitude": 48.7984,
    "longitude": 1.7898
  },
  {
    "nom": "Médan",
    "slug": "medan",
    "codeInsee": "78384",
    "codePostal": "78670",
    "departement": "78",
    "population": 1289,
    "superficie": 289,
    "densite": 4.46,
    "typeUrbain": "rural",
    "latitude": 48.9559,
    "longitude": 1.9858
  },
  {
    "nom": "Condé-sur-Vesgre",
    "slug": "conde-sur-vesgre",
    "codeInsee": "78171",
    "codePostal": "78113",
    "departement": "78",
    "population": 1279,
    "superficie": 1078,
    "densite": 1.19,
    "typeUrbain": "rural",
    "latitude": 48.7308,
    "longitude": 1.669
  },
  {
    "nom": "Tacoignières",
    "slug": "tacoignieres",
    "codeInsee": "78605",
    "codePostal": "78910",
    "departement": "78",
    "population": 1219,
    "superficie": 320,
    "densite": 3.81,
    "typeUrbain": "rural",
    "latitude": 48.8328,
    "longitude": 1.664
  },
  {
    "nom": "Aulnay-sur-Mauldre",
    "slug": "aulnay-sur-mauldre",
    "codeInsee": "78033",
    "codePostal": "78126",
    "departement": "78",
    "population": 1180,
    "superficie": 224,
    "densite": 5.27,
    "typeUrbain": "rural",
    "latitude": 48.9294,
    "longitude": 1.84
  },
  {
    "nom": "Toussus-le-Noble",
    "slug": "toussus-le-noble",
    "codeInsee": "78620",
    "codePostal": "78117",
    "departement": "78",
    "population": 1172,
    "superficie": 402,
    "densite": 2.92,
    "typeUrbain": "rural",
    "latitude": 48.7477,
    "longitude": 2.1192
  },
  {
    "nom": "Nézel",
    "slug": "nezel",
    "codeInsee": "78451",
    "codePostal": "78410",
    "departement": "78",
    "population": 1139,
    "superficie": 132,
    "densite": 8.62,
    "typeUrbain": "rural",
    "latitude": 48.9428,
    "longitude": 1.8398
  },
  {
    "nom": "Oinville-sur-Montcient",
    "slug": "oinville-sur-montcient",
    "codeInsee": "78460",
    "codePostal": "78250",
    "departement": "78",
    "population": 1131,
    "superficie": 382,
    "densite": 2.96,
    "typeUrbain": "rural",
    "latitude": 49.0249,
    "longitude": 1.8474
  },
  {
    "nom": "Maulette",
    "slug": "maulette",
    "codeInsee": "78381",
    "codePostal": "78550",
    "departement": "78",
    "population": 1088,
    "superficie": 791,
    "densite": 1.38,
    "typeUrbain": "rural",
    "latitude": 48.7842,
    "longitude": 1.6111
  },
  {
    "nom": "Guernes",
    "slug": "guernes",
    "codeInsee": "78290",
    "codePostal": "78520",
    "departement": "78",
    "population": 1085,
    "superficie": 863,
    "densite": 1.26,
    "typeUrbain": "rural",
    "latitude": 49.0164,
    "longitude": 1.6435
  },
  {
    "nom": "Aigremont",
    "slug": "aigremont",
    "codeInsee": "78007",
    "codePostal": "78240",
    "departement": "78",
    "population": 1075,
    "superficie": 304,
    "densite": 3.53,
    "typeUrbain": "rural",
    "latitude": 48.9027,
    "longitude": 2.0127
  },
  {
    "nom": "Thiverval-Grignon",
    "slug": "thiverval-grignon",
    "codeInsee": "78615",
    "codePostal": "78850",
    "departement": "78",
    "population": 1023,
    "superficie": 1130,
    "densite": 0.91,
    "typeUrbain": "rural",
    "latitude": 48.8419,
    "longitude": 1.9322
  },
  {
    "nom": "Auteuil",
    "slug": "auteuil",
    "codeInsee": "78034",
    "codePostal": "78770",
    "departement": "78",
    "population": 1020,
    "superficie": 441,
    "densite": 2.31,
    "typeUrbain": "rural",
    "latitude": 48.8415,
    "longitude": 1.8172
  },
  {
    "nom": "Dampierre-en-Yvelines",
    "slug": "dampierre-en-yvelines",
    "codeInsee": "78193",
    "codePostal": "78720",
    "departement": "78",
    "population": 1008,
    "superficie": 1128,
    "densite": 0.89,
    "typeUrbain": "rural",
    "latitude": 48.7065,
    "longitude": 1.9789
  },
  {
    "nom": "Hermeray",
    "slug": "hermeray",
    "codeInsee": "78307",
    "codePostal": "78125",
    "departement": "78",
    "population": 1007,
    "superficie": 1839,
    "densite": 0.55,
    "typeUrbain": "rural",
    "latitude": 48.6549,
    "longitude": 1.688
  },
  {
    "nom": "Saint-Hilarion",
    "slug": "saint-hilarion",
    "codeInsee": "78557",
    "codePostal": "78125",
    "departement": "78",
    "population": 999,
    "superficie": 1426,
    "densite": 0.7,
    "typeUrbain": "rural",
    "latitude": 48.6246,
    "longitude": 1.7222
  },
  {
    "nom": "Orcemont",
    "slug": "orcemont",
    "codeInsee": "78464",
    "codePostal": "78125",
    "departement": "78",
    "population": 985,
    "superficie": 1056,
    "densite": 0.93,
    "typeUrbain": "rural",
    "latitude": 48.5958,
    "longitude": 1.8031
  },
  {
    "nom": "Raizeux",
    "slug": "raizeux",
    "codeInsee": "78516",
    "codePostal": "78125",
    "departement": "78",
    "population": 970,
    "superficie": 1036,
    "densite": 0.94,
    "typeUrbain": "rural",
    "latitude": 48.6375,
    "longitude": 1.6849
  },
  {
    "nom": "Tessancourt-sur-Aubette",
    "slug": "tessancourt-sur-aubette",
    "codeInsee": "78609",
    "codePostal": "78250",
    "departement": "78",
    "population": 966,
    "superficie": 445,
    "densite": 2.17,
    "typeUrbain": "rural",
    "latitude": 49.0263,
    "longitude": 1.9218
  },
  {
    "nom": "Poigny-la-Forêt",
    "slug": "poigny-la-foret",
    "codeInsee": "78497",
    "codePostal": "78125",
    "departement": "78",
    "population": 957,
    "superficie": 2358,
    "densite": 0.41,
    "typeUrbain": "rural",
    "latitude": 48.6803,
    "longitude": 1.7549
  },
  {
    "nom": "Arnouville-lès-Mantes",
    "slug": "arnouville-les-mantes",
    "codeInsee": "78020",
    "codePostal": "78790",
    "departement": "78",
    "population": 951,
    "superficie": 990,
    "densite": 0.96,
    "typeUrbain": "rural",
    "latitude": 48.911,
    "longitude": 1.7225
  },
  {
    "nom": "Saulx-Marchais",
    "slug": "saulx-marchais",
    "codeInsee": "78588",
    "codePostal": "78650",
    "departement": "78",
    "population": 950,
    "superficie": 215,
    "densite": 4.41,
    "typeUrbain": "rural",
    "latitude": 48.8434,
    "longitude": 1.8361
  },
  {
    "nom": "Fontenay-Saint-Père",
    "slug": "fontenay-saint-pere",
    "codeInsee": "78246",
    "codePostal": "78440",
    "departement": "78",
    "population": 949,
    "superficie": 1307,
    "densite": 0.73,
    "typeUrbain": "rural",
    "latitude": 49.0274,
    "longitude": 1.7576
  },
  {
    "nom": "Saint-Martin-la-Garenne",
    "slug": "saint-martin-la-garenne",
    "codeInsee": "78567",
    "codePostal": "78520",
    "departement": "78",
    "population": 942,
    "superficie": 1593,
    "densite": 0.59,
    "typeUrbain": "rural",
    "latitude": 49.0372,
    "longitude": 1.6707
  },
  {
    "nom": "Neauphle-le-Vieux",
    "slug": "neauphle-le-vieux",
    "codeInsee": "78443",
    "codePostal": "78640",
    "departement": "78",
    "population": 937,
    "superficie": 763,
    "densite": 1.23,
    "typeUrbain": "rural",
    "latitude": 48.8166,
    "longitude": 1.8634
  },
  {
    "nom": "Le Tremblay-sur-Mauldre",
    "slug": "le-tremblay-sur-mauldre",
    "codeInsee": "78623",
    "codePostal": "78490",
    "departement": "78",
    "population": 930,
    "superficie": 606,
    "densite": 1.53,
    "typeUrbain": "rural",
    "latitude": 48.7859,
    "longitude": 1.8765
  },
  {
    "nom": "Orvilliers",
    "slug": "orvilliers",
    "codeInsee": "78474",
    "codePostal": "78910",
    "departement": "78",
    "population": 925,
    "superficie": 593,
    "densite": 1.56,
    "typeUrbain": "rural",
    "latitude": 48.8549,
    "longitude": 1.6423
  },
  {
    "nom": "Les Mesnuls",
    "slug": "les-mesnuls",
    "codeInsee": "78398",
    "codePostal": "78490",
    "departement": "78",
    "population": 910,
    "superficie": 656,
    "densite": 1.39,
    "typeUrbain": "rural",
    "latitude": 48.7542,
    "longitude": 1.8339
  },
  {
    "nom": "Rochefort-en-Yvelines",
    "slug": "rochefort-en-yvelines",
    "codeInsee": "78522",
    "codePostal": "78730",
    "departement": "78",
    "population": 910,
    "superficie": 1277,
    "densite": 0.71,
    "typeUrbain": "rural",
    "latitude": 48.593,
    "longitude": 1.9819
  },
  {
    "nom": "Blaru",
    "slug": "blaru",
    "codeInsee": "78068",
    "codePostal": "78270",
    "departement": "78",
    "population": 907,
    "superficie": 1498,
    "densite": 0.61,
    "typeUrbain": "rural",
    "latitude": 49.0413,
    "longitude": 1.4846
  },
  {
    "nom": "Sainte-Mesme",
    "slug": "sainte-mesme",
    "codeInsee": "78569",
    "codePostal": "78730",
    "departement": "78",
    "population": 904,
    "superficie": 831,
    "densite": 1.09,
    "typeUrbain": "rural",
    "latitude": 48.536,
    "longitude": 1.9433
  },
  {
    "nom": "Grosrouvre",
    "slug": "grosrouvre",
    "codeInsee": "78289",
    "codePostal": "78490",
    "departement": "78",
    "population": 902,
    "superficie": 1256,
    "densite": 0.72,
    "typeUrbain": "rural",
    "latitude": 48.7799,
    "longitude": 1.7609
  },
  {
    "nom": "Moisson",
    "slug": "moisson",
    "codeInsee": "78410",
    "codePostal": "78840",
    "departement": "78",
    "population": 902,
    "superficie": 1009,
    "densite": 0.89,
    "typeUrbain": "rural",
    "latitude": 49.0663,
    "longitude": 1.6587
  },
  {
    "nom": "Villiers-le-Mahieu",
    "slug": "villiers-le-mahieu",
    "codeInsee": "78681",
    "codePostal": "78770",
    "departement": "78",
    "population": 888,
    "superficie": 690,
    "densite": 1.29,
    "typeUrbain": "rural",
    "latitude": 48.8518,
    "longitude": 1.7744
  },
  {
    "nom": "Orphin",
    "slug": "orphin",
    "codeInsee": "78470",
    "codePostal": "78125",
    "departement": "78",
    "population": 875,
    "superficie": 1665,
    "densite": 0.53,
    "typeUrbain": "rural",
    "latitude": 48.5763,
    "longitude": 1.7842
  },
  {
    "nom": "Émancé",
    "slug": "emance",
    "codeInsee": "78209",
    "codePostal": "78125",
    "departement": "78",
    "population": 872,
    "superficie": 1217,
    "densite": 0.72,
    "typeUrbain": "rural",
    "latitude": 48.5906,
    "longitude": 1.7342
  },
  {
    "nom": "Neauphlette",
    "slug": "neauphlette",
    "codeInsee": "78444",
    "codePostal": "78980",
    "departement": "78",
    "population": 871,
    "superficie": 975,
    "densite": 0.89,
    "typeUrbain": "rural",
    "latitude": 48.9358,
    "longitude": 1.5446
  },
  {
    "nom": "Vert",
    "slug": "vert",
    "codeInsee": "78647",
    "codePostal": "78930",
    "departement": "78",
    "population": 852,
    "superficie": 372,
    "densite": 2.29,
    "typeUrbain": "rural",
    "latitude": 48.9429,
    "longitude": 1.6824
  },
  {
    "nom": "Clairefontaine-en-Yvelines",
    "slug": "clairefontaine-en-yvelines",
    "codeInsee": "78164",
    "codePostal": "78120",
    "departement": "78",
    "population": 850,
    "superficie": 1727,
    "densite": 0.49,
    "typeUrbain": "rural",
    "latitude": 48.6172,
    "longitude": 1.905
  },
  {
    "nom": "La Celle-les-Bordes",
    "slug": "la-celle-les-bordes",
    "codeInsee": "78125",
    "codePostal": "78720",
    "departement": "78",
    "population": 840,
    "superficie": 2288,
    "densite": 0.37,
    "typeUrbain": "rural",
    "latitude": 48.6382,
    "longitude": 1.9459
  },
  {
    "nom": "Prunay-en-Yvelines",
    "slug": "prunay-en-yvelines",
    "codeInsee": "78506",
    "codePostal": "78660",
    "departement": "78",
    "population": 808,
    "superficie": 2726,
    "densite": 0.3,
    "typeUrbain": "rural",
    "latitude": 48.5257,
    "longitude": 1.8041
  },
  {
    "nom": "Lainville-en-Vexin",
    "slug": "lainville-en-vexin",
    "codeInsee": "78329",
    "codePostal": "78440",
    "departement": "78",
    "population": 805,
    "superficie": 775,
    "densite": 1.04,
    "typeUrbain": "rural",
    "latitude": 49.0585,
    "longitude": 1.8182
  },
  {
    "nom": "Marcq",
    "slug": "marcq",
    "codeInsee": "78364",
    "codePostal": "78770",
    "departement": "78",
    "population": 802,
    "superficie": 480,
    "densite": 1.67,
    "typeUrbain": "rural",
    "latitude": 48.8645,
    "longitude": 1.8221
  },
  {
    "nom": "Jambville",
    "slug": "jambville",
    "codeInsee": "78317",
    "codePostal": "78440",
    "departement": "78",
    "population": 793,
    "superficie": 488,
    "densite": 1.63,
    "typeUrbain": "rural",
    "latitude": 49.0489,
    "longitude": 1.8483
  },
  {
    "nom": "Breuil-Bois-Robert",
    "slug": "breuil-bois-robert",
    "codeInsee": "78104",
    "codePostal": "78930",
    "departement": "78",
    "population": 764,
    "superficie": 377,
    "densite": 2.03,
    "typeUrbain": "rural",
    "latitude": 48.9447,
    "longitude": 1.7129
  },
  {
    "nom": "Soindres",
    "slug": "soindres",
    "codeInsee": "78597",
    "codePostal": "78200",
    "departement": "78",
    "population": 757,
    "superficie": 523,
    "densite": 1.45,
    "typeUrbain": "rural",
    "latitude": 48.9547,
    "longitude": 1.6732
  },
  {
    "nom": "Évecquemont",
    "slug": "evecquemont",
    "codeInsee": "78227",
    "codePostal": "78740",
    "departement": "78",
    "population": 754,
    "superficie": 253,
    "densite": 2.98,
    "typeUrbain": "rural",
    "latitude": 49.0182,
    "longitude": 1.9392
  },
  {
    "nom": "La Boissière-École",
    "slug": "la-boissiere-ecole",
    "codeInsee": "78077",
    "codePostal": "78125",
    "departement": "78",
    "population": 747,
    "superficie": 2558,
    "densite": 0.29,
    "typeUrbain": "rural",
    "latitude": 48.6911,
    "longitude": 1.6661
  },
  {
    "nom": "Notre-Dame-de-la-Mer",
    "slug": "notre-dame-de-la-mer",
    "codeInsee": "78320",
    "codePostal": "78270",
    "departement": "78",
    "population": 742,
    "superficie": 900,
    "densite": 0.82,
    "typeUrbain": "rural",
    "latitude": 49.0552,
    "longitude": 1.5292
  },
  {
    "nom": "Bazoches-sur-Guyonne",
    "slug": "bazoches-sur-guyonne",
    "codeInsee": "78050",
    "codePostal": "78490",
    "departement": "78",
    "population": 721,
    "superficie": 562,
    "densite": 1.28,
    "typeUrbain": "rural",
    "latitude": 48.7792,
    "longitude": 1.8489
  },
  {
    "nom": "Perdreauville",
    "slug": "perdreauville",
    "codeInsee": "78484",
    "codePostal": "78200",
    "departement": "78",
    "population": 701,
    "superficie": 1120,
    "densite": 0.63,
    "typeUrbain": "rural",
    "latitude": 48.9666,
    "longitude": 1.6056
  },
  {
    "nom": "Ponthévrard",
    "slug": "ponthevrard",
    "codeInsee": "78499",
    "codePostal": "78730",
    "departement": "78",
    "population": 693,
    "superficie": 265,
    "densite": 2.62,
    "typeUrbain": "rural",
    "latitude": 48.5496,
    "longitude": 1.91
  },
  {
    "nom": "Saint-Martin-de-Bréthencourt",
    "slug": "saint-martin-de-brethencourt",
    "codeInsee": "78564",
    "codePostal": "78660",
    "departement": "78",
    "population": 690,
    "superficie": 1662,
    "densite": 0.42,
    "typeUrbain": "rural",
    "latitude": 48.5153,
    "longitude": 1.9179
  },
  {
    "nom": "Gaillon-sur-Montcient",
    "slug": "gaillon-sur-montcient",
    "codeInsee": "78261",
    "codePostal": "78250",
    "departement": "78",
    "population": 689,
    "superficie": 498,
    "densite": 1.38,
    "typeUrbain": "rural",
    "latitude": 49.03,
    "longitude": 1.8979
  },
  {
    "nom": "Mousseaux-sur-Seine",
    "slug": "mousseaux-sur-seine",
    "codeInsee": "78437",
    "codePostal": "78270",
    "departement": "78",
    "population": 689,
    "superficie": 721,
    "densite": 0.96,
    "typeUrbain": "rural",
    "latitude": 49.051,
    "longitude": 1.6548
  },
  {
    "nom": "Adainville",
    "slug": "adainville",
    "codeInsee": "78006",
    "codePostal": "78113",
    "departement": "78",
    "population": 673,
    "superficie": 1019,
    "densite": 0.66,
    "typeUrbain": "rural",
    "latitude": 48.7206,
    "longitude": 1.6629
  },
  {
    "nom": "Auffreville-Brasseuil",
    "slug": "auffreville-brasseuil",
    "codeInsee": "78031",
    "codePostal": "78930",
    "departement": "78",
    "population": 671,
    "superficie": 235,
    "densite": 2.86,
    "typeUrbain": "rural",
    "latitude": 48.9543,
    "longitude": 1.7057
  },
  {
    "nom": "Autouillet",
    "slug": "autouillet",
    "codeInsee": "78036",
    "codePostal": "78770",
    "departement": "78",
    "population": 665,
    "superficie": 506,
    "densite": 1.31,
    "typeUrbain": "rural",
    "latitude": 48.8451,
    "longitude": 1.7958
  },
  {
    "nom": "La Villeneuve-en-Chevrie",
    "slug": "la-villeneuve-en-chevrie",
    "codeInsee": "78668",
    "codePostal": "78270",
    "departement": "78",
    "population": 665,
    "superficie": 1184,
    "densite": 0.56,
    "typeUrbain": "rural",
    "latitude": 49.0129,
    "longitude": 1.5285
  },
  {
    "nom": "Mittainville",
    "slug": "mittainville",
    "codeInsee": "78407",
    "codePostal": "78125",
    "departement": "78",
    "population": 659,
    "superficie": 1065,
    "densite": 0.62,
    "typeUrbain": "rural",
    "latitude": 48.6639,
    "longitude": 1.6363
  },
  {
    "nom": "Brueil-en-Vexin",
    "slug": "brueil-en-vexin",
    "codeInsee": "78113",
    "codePostal": "78440",
    "departement": "78",
    "population": 652,
    "superficie": 743,
    "densite": 0.88,
    "typeUrbain": "rural",
    "latitude": 49.0279,
    "longitude": 1.8083
  },
  {
    "nom": "Vieille-Église-en-Yvelines",
    "slug": "vieille-eglise-en-yvelines",
    "codeInsee": "78655",
    "codePostal": "78125",
    "departement": "78",
    "population": 652,
    "superficie": 973,
    "densite": 0.67,
    "typeUrbain": "rural",
    "latitude": 48.6695,
    "longitude": 1.8759
  },
  {
    "nom": "Goussonville",
    "slug": "goussonville",
    "codeInsee": "78281",
    "codePostal": "78930",
    "departement": "78",
    "population": 650,
    "superficie": 468,
    "densite": 1.39,
    "typeUrbain": "rural",
    "latitude": 48.9251,
    "longitude": 1.7668
  },
  {
    "nom": "Guitrancourt",
    "slug": "guitrancourt",
    "codeInsee": "78296",
    "codePostal": "78440",
    "departement": "78",
    "population": 646,
    "superficie": 737,
    "densite": 0.88,
    "typeUrbain": "rural",
    "latitude": 49.01,
    "longitude": 1.7775
  },
  {
    "nom": "Lommoye",
    "slug": "lommoye",
    "codeInsee": "78344",
    "codePostal": "78270",
    "departement": "78",
    "population": 639,
    "superficie": 951,
    "densite": 0.67,
    "typeUrbain": "rural",
    "latitude": 48.9985,
    "longitude": 1.5181
  },
  {
    "nom": "Jumeauville",
    "slug": "jumeauville",
    "codeInsee": "78325",
    "codePostal": "78580",
    "departement": "78",
    "population": 638,
    "superficie": 767,
    "densite": 0.83,
    "typeUrbain": "rural",
    "latitude": 48.9087,
    "longitude": 1.7827
  },
  {
    "nom": "Boissy-sans-Avoir",
    "slug": "boissy-sans-avoir",
    "codeInsee": "78084",
    "codePostal": "78490",
    "departement": "78",
    "population": 616,
    "superficie": 407,
    "densite": 1.51,
    "typeUrbain": "rural",
    "latitude": 48.8211,
    "longitude": 1.7979
  },
  {
    "nom": "Boissy-Mauvoisin",
    "slug": "boissy-mauvoisin",
    "codeInsee": "78082",
    "codePostal": "78200",
    "departement": "78",
    "population": 615,
    "superficie": 516,
    "densite": 1.19,
    "typeUrbain": "rural",
    "latitude": 48.965,
    "longitude": 1.5831
  },
  {
    "nom": "Gommecourt",
    "slug": "gommecourt",
    "codeInsee": "78276",
    "codePostal": "78270",
    "departement": "78",
    "population": 613,
    "superficie": 576,
    "densite": 1.06,
    "typeUrbain": "rural",
    "latitude": 49.0697,
    "longitude": 1.5931
  },
  {
    "nom": "La Falaise",
    "slug": "la-falaise",
    "codeInsee": "78230",
    "codePostal": "78410",
    "departement": "78",
    "population": 609,
    "superficie": 306,
    "densite": 1.99,
    "typeUrbain": "rural",
    "latitude": 48.9385,
    "longitude": 1.8246
  },
  {
    "nom": "Boinville-le-Gaillard",
    "slug": "boinville-le-gaillard",
    "codeInsee": "78071",
    "codePostal": "78660",
    "departement": "78",
    "population": 597,
    "superficie": 1267,
    "densite": 0.47,
    "typeUrbain": "rural",
    "latitude": 48.4958,
    "longitude": 1.8698
  },
  {
    "nom": "Montainville",
    "slug": "montainville",
    "codeInsee": "78415",
    "codePostal": "78124",
    "departement": "78",
    "population": 589,
    "superficie": 475,
    "densite": 1.24,
    "typeUrbain": "rural",
    "latitude": 48.8807,
    "longitude": 1.8539
  },
  {
    "nom": "Flexanville",
    "slug": "flexanville",
    "codeInsee": "78236",
    "codePostal": "78910",
    "departement": "78",
    "population": 576,
    "superficie": 888,
    "densite": 0.65,
    "typeUrbain": "rural",
    "latitude": 48.8569,
    "longitude": 1.7415
  },
  {
    "nom": "Goupillières",
    "slug": "goupillieres",
    "codeInsee": "78278",
    "codePostal": "78770",
    "departement": "78",
    "population": 570,
    "superficie": 564,
    "densite": 1.01,
    "typeUrbain": "rural",
    "latitude": 48.882,
    "longitude": 1.7651
  },
  {
    "nom": "Drocourt",
    "slug": "drocourt",
    "codeInsee": "78202",
    "codePostal": "78440",
    "departement": "78",
    "population": 554,
    "superficie": 387,
    "densite": 1.43,
    "typeUrbain": "rural",
    "latitude": 49.0528,
    "longitude": 1.7702
  },
  {
    "nom": "Jouy-Mauvoisin",
    "slug": "jouy-mauvoisin",
    "codeInsee": "78324",
    "codePostal": "78200",
    "departement": "78",
    "population": 554,
    "superficie": 284,
    "densite": 1.95,
    "typeUrbain": "rural",
    "latitude": 48.9746,
    "longitude": 1.6461
  },
  {
    "nom": "Andelu",
    "slug": "andelu",
    "codeInsee": "78013",
    "codePostal": "78770",
    "departement": "78",
    "population": 550,
    "superficie": 399,
    "densite": 1.38,
    "typeUrbain": "rural",
    "latitude": 48.887,
    "longitude": 1.8094
  },
  {
    "nom": "Choisel",
    "slug": "choisel",
    "codeInsee": "78162",
    "codePostal": "78460",
    "departement": "78",
    "population": 540,
    "superficie": 897,
    "densite": 0.6,
    "typeUrbain": "rural",
    "latitude": 48.6754,
    "longitude": 2.0159
  },
  {
    "nom": "Béhoust",
    "slug": "behoust",
    "codeInsee": "78053",
    "codePostal": "78910",
    "departement": "78",
    "population": 533,
    "superficie": 542,
    "densite": 0.98,
    "typeUrbain": "rural",
    "latitude": 48.8324,
    "longitude": 1.7247
  },
  {
    "nom": "Gressey",
    "slug": "gressey",
    "codeInsee": "78285",
    "codePostal": "78550",
    "departement": "78",
    "population": 533,
    "superficie": 721,
    "densite": 0.74,
    "typeUrbain": "rural",
    "latitude": 48.833,
    "longitude": 1.6009
  },
  {
    "nom": "Tilly",
    "slug": "tilly",
    "codeInsee": "78618",
    "codePostal": "78790",
    "departement": "78",
    "population": 530,
    "superficie": 775,
    "densite": 0.68,
    "typeUrbain": "rural",
    "latitude": 48.8785,
    "longitude": 1.5764
  },
  {
    "nom": "Villette",
    "slug": "villette",
    "codeInsee": "78677",
    "codePostal": "78930",
    "departement": "78",
    "population": 524,
    "superficie": 463,
    "densite": 1.13,
    "typeUrbain": "rural",
    "latitude": 48.9244,
    "longitude": 1.6917
  },
  {
    "nom": "Senlisse",
    "slug": "senlisse",
    "codeInsee": "78590",
    "codePostal": "78720",
    "departement": "78",
    "population": 511,
    "superficie": 810,
    "densite": 0.63,
    "typeUrbain": "rural",
    "latitude": 48.6828,
    "longitude": 1.9688
  },
  {
    "nom": "Bourdonné",
    "slug": "bourdonne",
    "codeInsee": "78096",
    "codePostal": "78113",
    "departement": "78",
    "population": 506,
    "superficie": 1091,
    "densite": 0.46,
    "typeUrbain": "rural",
    "latitude": 48.7556,
    "longitude": 1.6559
  },
  {
    "nom": "Longvilliers",
    "slug": "longvilliers",
    "codeInsee": "78349",
    "codePostal": "78730",
    "departement": "78",
    "population": 496,
    "superficie": 1406,
    "densite": 0.35,
    "typeUrbain": "rural",
    "latitude": 48.5781,
    "longitude": 1.9969
  },
  {
    "nom": "Fontenay-Mauvoisin",
    "slug": "fontenay-mauvoisin",
    "codeInsee": "78245",
    "codePostal": "78200",
    "departement": "78",
    "population": 460,
    "superficie": 332,
    "densite": 1.39,
    "typeUrbain": "rural",
    "latitude": 48.9601,
    "longitude": 1.6486
  },
  {
    "nom": "Saint-Illiers-le-Bois",
    "slug": "saint-illiers-le-bois",
    "codeInsee": "78559",
    "codePostal": "78980",
    "departement": "78",
    "population": 449,
    "superficie": 442,
    "densite": 1.02,
    "typeUrbain": "rural",
    "latitude": 48.9647,
    "longitude": 1.5102
  },
  {
    "nom": "Saint-Lambert",
    "slug": "saint-lambert",
    "codeInsee": "78561",
    "codePostal": "78470",
    "departement": "78",
    "population": 447,
    "superficie": 662,
    "densite": 0.68,
    "typeUrbain": "rural",
    "latitude": 48.7339,
    "longitude": 2.0093
  },
  {
    "nom": "Chaufour-lès-Bonnières",
    "slug": "chaufour-les-bonnieres",
    "codeInsee": "78147",
    "codePostal": "78270",
    "departement": "78",
    "population": 442,
    "superficie": 305,
    "densite": 1.45,
    "typeUrbain": "rural",
    "latitude": 49.0161,
    "longitude": 1.4842
  },
  {
    "nom": "Cravent",
    "slug": "cravent",
    "codeInsee": "78188",
    "codePostal": "78270",
    "departement": "78",
    "population": 438,
    "superficie": 610,
    "densite": 0.72,
    "typeUrbain": "rural",
    "latitude": 48.9901,
    "longitude": 1.4844
  },
  {
    "nom": "Saint-Forget",
    "slug": "saint-forget",
    "codeInsee": "78548",
    "codePostal": "78720",
    "departement": "78",
    "population": 436,
    "superficie": 600,
    "densite": 0.73,
    "typeUrbain": "rural",
    "latitude": 48.7128,
    "longitude": 1.9976
  },
  {
    "nom": "Mareil-le-Guyon",
    "slug": "mareil-le-guyon",
    "codeInsee": "78366",
    "codePostal": "78490",
    "departement": "78",
    "population": 420,
    "superficie": 408,
    "densite": 1.03,
    "typeUrbain": "rural",
    "latitude": 48.7899,
    "longitude": 1.8531
  },
  {
    "nom": "Hargeville",
    "slug": "hargeville",
    "codeInsee": "78300",
    "codePostal": "78790",
    "departement": "78",
    "population": 418,
    "superficie": 701,
    "densite": 0.6,
    "typeUrbain": "rural",
    "latitude": 48.8953,
    "longitude": 1.7464
  },
  {
    "nom": "Courgent",
    "slug": "courgent",
    "codeInsee": "78185",
    "codePostal": "78790",
    "departement": "78",
    "population": 414,
    "superficie": 201,
    "densite": 2.06,
    "typeUrbain": "rural",
    "latitude": 48.8971,
    "longitude": 1.6595
  },
  {
    "nom": "Osmoy",
    "slug": "osmoy",
    "codeInsee": "78475",
    "codePostal": "78910",
    "departement": "78",
    "population": 413,
    "superficie": 257,
    "densite": 1.61,
    "typeUrbain": "rural",
    "latitude": 48.8645,
    "longitude": 1.7162
  },
  {
    "nom": "Prunay-le-Temple",
    "slug": "prunay-le-temple",
    "codeInsee": "78505",
    "codePostal": "78910",
    "departement": "78",
    "population": 409,
    "superficie": 674,
    "densite": 0.61,
    "typeUrbain": "rural",
    "latitude": 48.858,
    "longitude": 1.6741
  },
  {
    "nom": "Vicq",
    "slug": "vicq",
    "codeInsee": "78653",
    "codePostal": "78490",
    "departement": "78",
    "population": 389,
    "superficie": 447,
    "densite": 0.87,
    "typeUrbain": "rural",
    "latitude": 48.8223,
    "longitude": 1.8283
  },
  {
    "nom": "Rosay",
    "slug": "rosay",
    "codeInsee": "78530",
    "codePostal": "78790",
    "departement": "78",
    "population": 387,
    "superficie": 451,
    "densite": 0.86,
    "typeUrbain": "rural",
    "latitude": 48.9108,
    "longitude": 1.684
  },
  {
    "nom": "Méricourt",
    "slug": "mericourt",
    "codeInsee": "78391",
    "codePostal": "78270",
    "departement": "78",
    "population": 383,
    "superficie": 244,
    "densite": 1.57,
    "typeUrbain": "rural",
    "latitude": 49.037,
    "longitude": 1.6254
  },
  {
    "nom": "Mondreville",
    "slug": "mondreville",
    "codeInsee": "78413",
    "codePostal": "78980",
    "departement": "78",
    "population": 381,
    "superficie": 448,
    "densite": 0.85,
    "typeUrbain": "rural",
    "latitude": 48.9034,
    "longitude": 1.5568
  },
  {
    "nom": "Civry-la-Forêt",
    "slug": "civry-la-foret",
    "codeInsee": "78163",
    "codePostal": "78910",
    "departement": "78",
    "population": 373,
    "superficie": 939,
    "densite": 0.4,
    "typeUrbain": "rural",
    "latitude": 48.8647,
    "longitude": 1.6187
  },
  {
    "nom": "Sailly",
    "slug": "sailly",
    "codeInsee": "78536",
    "codePostal": "78440",
    "departement": "78",
    "population": 354,
    "superficie": 549,
    "densite": 0.64,
    "typeUrbain": "rural",
    "latitude": 49.0448,
    "longitude": 1.7927
  },
  {
    "nom": "Saint-Illiers-la-Ville",
    "slug": "saint-illiers-la-ville",
    "codeInsee": "78558",
    "codePostal": "78980",
    "departement": "78",
    "population": 350,
    "superficie": 662,
    "densite": 0.53,
    "typeUrbain": "rural",
    "latitude": 48.9777,
    "longitude": 1.5437
  },
  {
    "nom": "Rolleboise",
    "slug": "rolleboise",
    "codeInsee": "78528",
    "codePostal": "78270",
    "departement": "78",
    "population": 346,
    "superficie": 304,
    "densite": 1.14,
    "typeUrbain": "rural",
    "latitude": 49.0195,
    "longitude": 1.6006
  },
  {
    "nom": "Orsonville",
    "slug": "orsonville",
    "codeInsee": "78472",
    "codePostal": "78660",
    "departement": "78",
    "population": 325,
    "superficie": 975,
    "densite": 0.33,
    "typeUrbain": "rural",
    "latitude": 48.4778,
    "longitude": 1.8227
  },
  {
    "nom": "Montalet-le-Bois",
    "slug": "montalet-le-bois",
    "codeInsee": "78416",
    "codePostal": "78440",
    "departement": "78",
    "population": 322,
    "superficie": 303,
    "densite": 1.06,
    "typeUrbain": "rural",
    "latitude": 49.0471,
    "longitude": 1.8287
  },
  {
    "nom": "Saint-Martin-des-Champs",
    "slug": "saint-martin-des-champs",
    "codeInsee": "78565",
    "codePostal": "78790",
    "departement": "78",
    "population": 304,
    "superficie": 621,
    "densite": 0.49,
    "typeUrbain": "rural",
    "latitude": 48.8776,
    "longitude": 1.7215
  },
  {
    "nom": "Boissets",
    "slug": "boissets",
    "codeInsee": "78076",
    "codePostal": "78910",
    "departement": "78",
    "population": 301,
    "superficie": 393,
    "densite": 0.77,
    "typeUrbain": "rural",
    "latitude": 48.8578,
    "longitude": 1.5859
  },
  {
    "nom": "Grandchamp",
    "slug": "grandchamp",
    "codeInsee": "78283",
    "codePostal": "78113",
    "departement": "78",
    "population": 300,
    "superficie": 610,
    "densite": 0.49,
    "typeUrbain": "rural",
    "latitude": 48.7207,
    "longitude": 1.6141
  },
  {
    "nom": "Davron",
    "slug": "davron",
    "codeInsee": "78196",
    "codePostal": "78810",
    "departement": "78",
    "population": 295,
    "superficie": 608,
    "densite": 0.49,
    "typeUrbain": "rural",
    "latitude": 48.8664,
    "longitude": 1.946
  },
  {
    "nom": "Milon-la-Chapelle",
    "slug": "milon-la-chapelle",
    "codeInsee": "78406",
    "codePostal": "78470",
    "departement": "78",
    "population": 295,
    "superficie": 309,
    "densite": 0.96,
    "typeUrbain": "rural",
    "latitude": 48.7298,
    "longitude": 2.0461
  },
  {
    "nom": "Boinville-en-Mantois",
    "slug": "boinville-en-mantois",
    "codeInsee": "78070",
    "codePostal": "78930",
    "departement": "78",
    "population": 285,
    "superficie": 491,
    "densite": 0.58,
    "typeUrbain": "rural",
    "latitude": 48.9272,
    "longitude": 1.7491
  },
  {
    "nom": "Allainville",
    "slug": "allainville",
    "codeInsee": "78009",
    "codePostal": "78660",
    "departement": "78",
    "population": 281,
    "superficie": 1627,
    "densite": 0.17,
    "typeUrbain": "rural",
    "latitude": 48.4673,
    "longitude": 1.9038
  },
  {
    "nom": "Montchauvet",
    "slug": "montchauvet",
    "codeInsee": "78417",
    "codePostal": "78790",
    "departement": "78",
    "population": 275,
    "superficie": 798,
    "densite": 0.34,
    "typeUrbain": "rural",
    "latitude": 48.8944,
    "longitude": 1.6265
  },
  {
    "nom": "Millemont",
    "slug": "millemont",
    "codeInsee": "78404",
    "codePostal": "78940",
    "departement": "78",
    "population": 272,
    "superficie": 580,
    "densite": 0.47,
    "typeUrbain": "rural",
    "latitude": 48.8095,
    "longitude": 1.7258
  },
  {
    "nom": "Boinvilliers",
    "slug": "boinvilliers",
    "codeInsee": "78072",
    "codePostal": "78200",
    "departement": "78",
    "population": 243,
    "superficie": 360,
    "densite": 0.67,
    "typeUrbain": "rural",
    "latitude": 48.9188,
    "longitude": 1.661
  },
  {
    "nom": "Dannemarie",
    "slug": "dannemarie",
    "codeInsee": "78194",
    "codePostal": "78550",
    "departement": "78",
    "population": 229,
    "superficie": 345,
    "densite": 0.66,
    "typeUrbain": "rural",
    "latitude": 48.7623,
    "longitude": 1.6036
  },
  {
    "nom": "Herbeville",
    "slug": "herbeville",
    "codeInsee": "78305",
    "codePostal": "78580",
    "departement": "78",
    "population": 228,
    "superficie": 641,
    "densite": 0.36,
    "typeUrbain": "rural",
    "latitude": 48.903,
    "longitude": 1.8901
  },
  {
    "nom": "Paray-Douaville",
    "slug": "paray-douaville",
    "codeInsee": "78478",
    "codePostal": "78660",
    "departement": "78",
    "population": 218,
    "superficie": 1020,
    "densite": 0.21,
    "typeUrbain": "rural",
    "latitude": 48.4607,
    "longitude": 1.8615
  },
  {
    "nom": "Ménerville",
    "slug": "menerville",
    "codeInsee": "78385",
    "codePostal": "78200",
    "departement": "78",
    "population": 216,
    "superficie": 349,
    "densite": 0.62,
    "typeUrbain": "rural",
    "latitude": 48.9568,
    "longitude": 1.5971
  },
  {
    "nom": "Flacourt",
    "slug": "flacourt",
    "codeInsee": "78234",
    "codePostal": "78200",
    "departement": "78",
    "population": 184,
    "superficie": 436,
    "densite": 0.42,
    "typeUrbain": "rural",
    "latitude": 48.9312,
    "longitude": 1.6416
  },
  {
    "nom": "Flins-Neuve-Église",
    "slug": "flins-neuve-eglise",
    "codeInsee": "78237",
    "codePostal": "78790",
    "departement": "78",
    "population": 162,
    "superficie": 124,
    "densite": 1.3,
    "typeUrbain": "rural",
    "latitude": 48.8927,
    "longitude": 1.5773
  },
  {
    "nom": "Favrieux",
    "slug": "favrieux",
    "codeInsee": "78231",
    "codePostal": "78200",
    "departement": "78",
    "population": 157,
    "superficie": 318,
    "densite": 0.49,
    "typeUrbain": "rural",
    "latitude": 48.9439,
    "longitude": 1.6407
  },
  {
    "nom": "La Hauteville",
    "slug": "la-hauteville",
    "codeInsee": "78302",
    "codePostal": "78113",
    "departement": "78",
    "population": 157,
    "superficie": 490,
    "densite": 0.32,
    "typeUrbain": "rural",
    "latitude": 48.7049,
    "longitude": 1.6257
  },
  {
    "nom": "Le Tertre-Saint-Denis",
    "slug": "le-tertre-saint-denis",
    "codeInsee": "78608",
    "codePostal": "78980",
    "departement": "78",
    "population": 137,
    "superficie": 291,
    "densite": 0.47,
    "typeUrbain": "rural",
    "latitude": 48.9427,
    "longitude": 1.609
  },
  {
    "nom": "Mulcent",
    "slug": "mulcent",
    "codeInsee": "78439",
    "codePostal": "78790",
    "departement": "78",
    "population": 128,
    "superficie": 358,
    "densite": 0.36,
    "typeUrbain": "rural",
    "latitude": 48.879,
    "longitude": 1.6524
  },
  {
    "nom": "Rennemoulin",
    "slug": "rennemoulin",
    "codeInsee": "78518",
    "codePostal": "78590",
    "departement": "78",
    "population": 116,
    "superficie": 222,
    "densite": 0.52,
    "typeUrbain": "rural",
    "latitude": 48.8339,
    "longitude": 2.0421
  },
  {
    "nom": "Gambaiseuil",
    "slug": "gambaiseuil",
    "codeInsee": "78264",
    "codePostal": "78490",
    "departement": "78",
    "population": 64,
    "superficie": 1920,
    "densite": 0.03,
    "typeUrbain": "rural",
    "latitude": 48.7614,
    "longitude": 1.7221
  },
  {
    "nom": "Le Tartre-Gaudran",
    "slug": "le-tartre-gaudran",
    "codeInsee": "78606",
    "codePostal": "78113",
    "departement": "78",
    "population": 37,
    "superficie": 430,
    "densite": 0.09,
    "typeUrbain": "rural",
    "latitude": 48.6976,
    "longitude": 1.6028
  }
]