[
  {
    "nom": "Boulogne-Billancourt",
    "slug": "boulogne-billancourt",
    "codeInsee": "92012",
    "codePostal": "92100",
    "departement": "92",
    "population": 119019,
    "superficie": 615,
    "densite": 193.46,
    "typeUrbain": "urbain_dense",
    "latitude": 48.8375,
    "longitude": 2.2429
  },
  {
    "nom": "Nanterre",
    "slug": "nanterre",
    "codeInsee": "92050",
    "codePostal": "92000",
    "departement": "92",
    "population": 97783,
    "superficie": 1222,
    "densite": 79.99,
    "typeUrbain": "urbain_dense",
    "latitude": 48.8974,
    "longitude": 2.2018
  },
  {
    "nom": "Asnières-sur-Seine",
    "slug": "asnieres-sur-seine",
    "codeInsee": "92004",
    "codePostal": "92600",
    "departement": "92",
    "population": 93941,
    "superficie": 482,
    "densite": 194.85,
    "typeUrbain": "urbain_dense",
    "latitude": 48.9181,
    "longitude": 2.2935
  },
  {
    "nom": "Colombes",
    "slug": "colombes",
    "codeInsee": "92025",
    "codePostal": "92700",
    "departement": "92",
    "population": 91053,
    "superficie": 778,
    "densite": 117.06,
    "typeUrbain": "urbain_dense",
    "latitude": 48.9218,
    "longitude": 2.2469
  },
  {
    "nom": "Courbevoie",
    "slug": "courbevoie",
    "codeInsee": "92026",
    "codePostal": "92400",
    "departement": "92",
    "population": 82902,
    "superficie": 416,
    "densite": 199.26,
    "typeUrbain": "urbain_dense",
    "latitude": 48.8976,
    "longitude": 2.2574
  },
  {
    "nom": "Rueil-Malmaison",
    "slug": "rueil-malmaison",
    "codeInsee": "92063",
    "codePostal": "92500",
    "departement": "92",
    "population": 82874,
    "superficie": 1453,
    "densite": 57.04,
    "typeUrbain": "urbain_dense",
    "latitude": 48.8717,
    "longitude": 2.1806
  },
  {
    "nom": "Levallois-Perret",
    "slug": "levallois-perret",
    "codeInsee": "92044",
    "codePostal": "92300",
    "departement": "92",
    "population": 68092,
    "superficie": 242,
    "densite": 281.87,
    "typeUrbain": "urbain_dense",
    "latitude": 48.8946,
    "longitude": 2.2874
  },
  {
    "nom": "Issy-les-Moulineaux",
    "slug": "issy-les-moulineaux",
    "codeInsee": "92040",
    "codePostal": "92130",
    "departement": "92",
    "population": 67669,
    "superficie": 424,
    "densite": 159.41,
    "typeUrbain": "urbain_dense",
    "latitude": 48.824,
    "longitude": 2.2628
  },
  {
    "nom": "Clichy",
    "slug": "clichy",
    "codeInsee": "92024",
    "codePostal": "92110",
    "departement": "92",
    "population": 64410,
    "superficie": 308,
    "densite": 209.16,
    "typeUrbain": "urbain_dense",
    "latitude": 48.9041,
    "longitude": 2.3041
  },
  {
    "nom": "Antony",
    "slug": "antony",
    "codeInsee": "92002",
    "codePostal": "92160",
    "departement": "92",
    "population": 64263,
    "superficie": 956,
    "densite": 67.21,
    "typeUrbain": "urbain_dense",
    "latitude": 48.7507,
    "longitude": 2.2976
  },
  {
    "nom": "Neuilly-sur-Seine",
    "slug": "neuilly-sur-seine",
    "codeInsee": "92051",
    "codePostal": "92200",
    "departement": "92",
    "population": 59538,
    "superficie": 372,
    "densite": 160.17,
    "typeUrbain": "urbain_dense",
    "latitude": 48.8862,
    "longitude": 2.2651
  },
  {
    "nom": "Clamart",
    "slug": "clamart",
    "codeInsee": "92023",
    "codePostal": "92140",
    "departement": "92",
    "population": 58576,
    "superficie": 876,
    "densite": 66.87,
    "typeUrbain": "urbain_dense",
    "latitude": 48.7957,
    "longitude": 2.2518
  },
  {
    "nom": "Gennevilliers",
    "slug": "gennevilliers",
    "codeInsee": "92036",
    "codePostal": "92230",
    "departement": "92",
    "population": 50979,
    "superficie": 1163,
    "densite": 43.84,
    "typeUrbain": "urbain_dense",
    "latitude": 48.9319,
    "longitude": 2.288
  },
  {
    "nom": "Suresnes",
    "slug": "suresnes",
    "codeInsee": "92073",
    "codePostal": "92150",
    "departement": "92",
    "population": 48956,
    "superficie": 380,
    "densite": 128.95,
    "typeUrbain": "urbain",
    "latitude": 48.871,
    "longitude": 2.2183
  },
  {
    "nom": "Meudon",
    "slug": "meudon",
    "codeInsee": "92048",
    "codePostal": "92190",
    "departement": "92",
    "population": 46334,
    "superficie": 994,
    "densite": 46.6,
    "typeUrbain": "urbain",
    "latitude": 48.8028,
    "longitude": 2.2288
  },
  {
    "nom": "Montrouge",
    "slug": "montrouge",
    "codeInsee": "92049",
    "codePostal": "92120",
    "departement": "92",
    "population": 46324,
    "superficie": 207,
    "densite": 223.72,
    "typeUrbain": "urbain",
    "latitude": 48.8159,
    "longitude": 2.3163
  },
  {
    "nom": "Bagneux",
    "slug": "bagneux",
    "codeInsee": "92007",
    "codePostal": "92220",
    "departement": "92",
    "population": 44572,
    "superficie": 418,
    "densite": 106.53,
    "typeUrbain": "urbain",
    "latitude": 48.798,
    "longitude": 2.3093
  },
  {
    "nom": "Puteaux",
    "slug": "puteaux",
    "codeInsee": "92062",
    "codePostal": "92800",
    "departement": "92",
    "population": 44002,
    "superficie": 319,
    "densite": 137.94,
    "typeUrbain": "urbain",
    "latitude": 48.8824,
    "longitude": 2.2384
  },
  {
    "nom": "Châtillon",
    "slug": "chatillon",
    "codeInsee": "92020",
    "codePostal": "92320",
    "departement": "92",
    "population": 36705,
    "superficie": 292,
    "densite": 125.54,
    "typeUrbain": "urbain",
    "latitude": 48.8031,
    "longitude": 2.2887
  },
  {
    "nom": "Châtenay-Malabry",
    "slug": "chatenay-malabry",
    "codeInsee": "92019",
    "codePostal": "92290",
    "departement": "92",
    "population": 35825,
    "superficie": 637,
    "densite": 56.28,
    "typeUrbain": "urbain",
    "latitude": 48.7697,
    "longitude": 2.2603
  },
  {
    "nom": "Malakoff",
    "slug": "malakoff",
    "codeInsee": "92046",
    "codePostal": "92240",
    "departement": "92",
    "population": 30557,
    "superficie": 207,
    "densite": 147.51,
    "typeUrbain": "urbain",
    "latitude": 48.817,
    "longitude": 2.2943
  },
  {
    "nom": "La Garenne-Colombes",
    "slug": "la-garenne-colombes",
    "codeInsee": "92035",
    "codePostal": "92250",
    "departement": "92",
    "population": 30197,
    "superficie": 178,
    "densite": 169.53,
    "typeUrbain": "urbain",
    "latitude": 48.9071,
    "longitude": 2.2437
  },
  {
    "nom": "Saint-Cloud",
    "slug": "saint-cloud",
    "codeInsee": "92064",
    "codePostal": "92210",
    "departement": "92",
    "population": 29855,
    "superficie": 751,
    "densite": 39.76,
    "typeUrbain": "urbain",
    "latitude": 48.844,
    "longitude": 2.2032
  },
  {
    "nom": "Bois-Colombes",
    "slug": "bois-colombes",
    "codeInsee": "92009",
    "codePostal": "92270",
    "departement": "92",
    "population": 28909,
    "superficie": 193,
    "densite": 150.17,
    "typeUrbain": "urbain",
    "latitude": 48.9151,
    "longitude": 2.2688
  },
  {
    "nom": "Le Plessis-Robinson",
    "slug": "le-plessis-robinson",
    "codeInsee": "92060",
    "codePostal": "92350",
    "departement": "92",
    "population": 28848,
    "superficie": 341,
    "densite": 84.67,
    "typeUrbain": "urbain",
    "latitude": 48.7815,
    "longitude": 2.2592
  },
  {
    "nom": "Vanves",
    "slug": "vanves",
    "codeInsee": "92075",
    "codePostal": "92170",
    "departement": "92",
    "population": 28622,
    "superficie": 156,
    "densite": 184.06,
    "typeUrbain": "urbain",
    "latitude": 48.8214,
    "longitude": 2.2869
  },
  {
    "nom": "Villeneuve-la-Garenne",
    "slug": "villeneuve-la-garenne",
    "codeInsee": "92078",
    "codePostal": "92390",
    "departement": "92",
    "population": 26021,
    "superficie": 320,
    "densite": 81.31,
    "typeUrbain": "urbain",
    "latitude": 48.9354,
    "longitude": 2.3231
  },
  {
    "nom": "Fontenay-aux-Roses",
    "slug": "fontenay-aux-roses",
    "codeInsee": "92032",
    "codePostal": "92260",
    "departement": "92",
    "population": 24070,
    "superficie": 253,
    "densite": 95.12,
    "typeUrbain": "urbain",
    "latitude": 48.7895,
    "longitude": 2.2876
  },
  {
    "nom": "Sèvres",
    "slug": "sevres",
    "codeInsee": "92072",
    "codePostal": "92310",
    "departement": "92",
    "population": 22303,
    "superficie": 393,
    "densite": 56.79,
    "typeUrbain": "urbain",
    "latitude": 48.8223,
    "longitude": 2.2056
  },
  {
    "nom": "Bourg-la-Reine",
    "slug": "bourg-la-reine",
    "codeInsee": "92014",
    "codePostal": "92340",
    "departement": "92",
    "population": 21019,
    "superficie": 186,
    "densite": 113.11,
    "typeUrbain": "urbain",
    "latitude": 48.7801,
    "longitude": 2.3167
  },
  {
    "nom": "Sceaux",
    "slug": "sceaux",
    "codeInsee": "92071",
    "codePostal": "92330",
    "departement": "92",
    "population": 20884,
    "superficie": 360,
    "densite": 58.05,
    "typeUrbain": "urbain",
    "latitude": 48.776,
    "longitude": 2.2963
  },
  {
    "nom": "Chaville",
    "slug": "chaville",
    "codeInsee": "92022",
    "codePostal": "92370",
    "departement": "92",
    "population": 20594,
    "superficie": 357,
    "densite": 57.61,
    "typeUrbain": "urbain",
    "latitude": 48.8091,
    "longitude": 2.191
  },
  {
    "nom": "Garches",
    "slug": "garches",
    "codeInsee": "92033",
    "codePostal": "92380",
    "departement": "92",
    "population": 17743,
    "superficie": 272,
    "densite": 65.21,
    "typeUrbain": "periurbain",
    "latitude": 48.8469,
    "longitude": 2.1861
  },
  {
    "nom": "Ville-d'Avray",
    "slug": "ville-d-avray",
    "codeInsee": "92077",
    "codePostal": "92410",
    "departement": "92",
    "population": 11089,
    "superficie": 369,
    "densite": 30.04,
    "typeUrbain": "periurbain",
    "latitude": 48.8215,
    "longitude": 2.1759
  },
  {
    "nom": "Vaucresson",
    "slug": "vaucresson",
    "codeInsee": "92076",
    "codePostal": "92420",
    "departement": "92",
    "population": 8432,
    "superficie": 309,
    "densite": 27.25,
    "typeUrbain": "periurbain",
    "latitude": 48.8377,
    "longitude": 2.1628
  },
  {
    "nom": "Marnes-la-Coquette",
    "slug": "marnes-la-coquette",
    "codeInsee": "92047",
    "codePostal": "92430",
    "departement": "92",
    "population": 1752,
    "superficie": 347,
    "densite": 5.04,
    "typeUrbain": "rural",
    "latitude": 48.8286,
    "longitude": 2.1689
  }
]